{"type": "FeatureCollection", "features": [{"type": "Feature", "geometry": {"type": "Point", "coordinates": [144.968333, -37.849722]}, "properties": {"Country": "Australia", "Location": "Melbourne", "CourseName": "Albert Park Circuit", "month": "Mar", "day": 16, "hour": "3 PM"}}, {"type": "Feature", "geometry": {"type": "Point", "coordinates": [121.219722, 31.338889]}, "properties": {"Country": "China", "Location": "Shanghai", "CourseName": "Shanghai International Circuit", "month": "Mar", "day": 23, "hour": "3 PM"}}, {"type": "Feature", "geometry": {"type": "Point", "coordinates": [136.5389, 34.8417]}, "properties": {"Country": "Japan", "Location": "Suzuka", "CourseName": "Suzuka International Racing Course", "month": "Apr", "day": 6, "hour": "2 PM"}}, {"type": "Feature", "geometry": {"type": "Point", "coordinates": [50.510556, 26.0325]}, "properties": {"Country": "Bahrain", "Location": "Sakhir", "CourseName": "Bahrain International Circuit", "month": "Apr", "day": 13, "hour": "6 PM"}}, {"type": "Feature", "geometry": {"type": "Point", "coordinates": [39.104444, 21.631944]}, "properties": {"Country": "Saudi Arabia", "Location": "Jeddah", "CourseName": "Jeddah Corniche Circuit", "month": "Apr", "day": 20, "hour": "8 PM"}}, {"type": "Feature", "geometry": {"type": "Point", "coordinates": [-80.238889, 25.958056]}, "properties": {"Country": "United States", "Location": "Miami", "CourseName": "Miami International Autodrome", "month": "May", "day": 4, "hour": "4 PM"}}, {"type": "Feature", "geometry": {"type": "Point", "coordinates": [11.713333, 44.341111]}, "properties": {"Country": "Italy", "Location": "Imola", "CourseName": "Autodromo Internazionale Enzo e Dino Ferrari", "month": "May", "day": 18, "hour": "3 PM"}}, {"type": "Feature", "geometry": {"type": "Point", "coordinates": [7.420556, 43.734722]}, "properties": {"Country": "Monaco", "Location": "Monaco", "CourseName": "Circuit de Monaco", "month": "May", "day": 25, "hour": "3 PM"}}, {"type": "Feature", "geometry": {"type": "Point", "coordinates": [2.261111, 41.57]}, "properties": {"Country": "Spain", "Location": "Barcelona", "CourseName": "Circuit de Barcelona-Catalunya", "month": "Jun", "day": 1, "hour": "3 PM"}}, {"type": "Feature", "geometry": {"type": "Point", "coordinates": [-73.5225, 45.500556]}, "properties": {"Country": "Canada", "Location": "Montr\u00e9al", "CourseName": "Circuit Gilles-Villeneuve", "month": "Jun", "day": 15, "hour": "2 PM"}}, {"type": "Feature", "geometry": {"type": "Point", "coordinates": [14.764722, 47.219722]}, "properties": {"Country": "Austria", "Location": "Spielberg", "CourseName": "Red Bull Ring", "month": "Jun", "day": 29, "hour": "3 PM"}}, {"type": "Feature", "geometry": {"type": "Point", "coordinates": [-1.016, 52.071]}, "properties": {"Country": "United Kingdom", "Location": "Silverstone", "CourseName": "Silverstone Circuit", "month": "Jul", "day": 6, "hour": "3 PM"}}, {"type": "Feature", "geometry": {"type": "Point", "coordinates": [5.971389, 50.437222]}, "properties": {"Country": "Belgium", "Location": "Spa-Francorchamps", "CourseName": "Circuit de Spa-Francorchamps", "month": "Jul", "day": 27, "hour": "3 PM"}}, {"type": "Feature", "geometry": {"type": "Point", "coordinates": [19.251111, 47.582222]}, "properties": {"Country": "Hungary", "Location": "Budapest", "CourseName": "Hungaroring", "month": "Aug", "day": 3, "hour": "3 PM"}}, {"type": "Feature", "geometry": {"type": "Point", "coordinates": [4.540833, 52.388889]}, "properties": {"Country": "Netherlands", "Location": "Zandvoort", "CourseName": "Circuit Zandvoort", "month": "Aug", "day": 31, "hour": "3 PM"}}, {"type": "Feature", "geometry": {"type": "Point", "coordinates": [9.289444, 45.620556]}, "properties": {"Country": "Italy", "Location": "Monza", "CourseName": "Autodromo Nazionale di Monza", "month": "Sep", "day": 7, "hour": "3 PM"}}, {"type": "Feature", "geometry": {"type": "Point", "coordinates": [49.853333, 40.3725]}, "properties": {"Country": "Azerbaijan", "Location": "Baku", "CourseName": "Baku City Circuit", "month": "Sep", "day": 21, "hour": "3 PM"}}, {"type": "Feature", "geometry": {"type": "Point", "coordinates": [103.86385, 1.291531]}, "properties": {"Country": "Singapore", "Location": "Marina Bay", "CourseName": "Marina Bay Street Circuit", "month": "Oct", "day": 5, "hour": "8 PM"}}, {"type": "Feature", "geometry": {"type": "Point", "coordinates": [-97.641111, 30.132778]}, "properties": {"Country": "United States", "Location": "Austin", "CourseName": "Circuit of the Americas", "month": "Oct", "day": 19, "hour": "2 PM"}}, {"type": "Feature", "geometry": {"type": "Point", "coordinates": [-99.0925, 19.406111]}, "properties": {"Country": "Mexico", "Location": "Mexico City", "CourseName": "Aut\u00f3dromo Hermanos Rodr\u00edguez", "month": "Oct", "day": 26, "hour": "2 PM"}}, {"type": "Feature", "geometry": {"type": "Point", "coordinates": [-46.697222, -23.701111]}, "properties": {"Country": "Brazil", "Location": "S\u00e3o Paulo", "CourseName": "Aut\u00f3dromo Jos\u00e9 Carlos Pace", "month": "Nov", "day": 9, "hour": "2 PM"}}, {"type": "Feature", "geometry": {"type": "Point", "coordinates": [-115.16217, 36.10995]}, "properties": {"Country": "United States", "Location": "Las Vegas", "CourseName": "Las Vegas Strip Circuit", "month": "Nov", "day": 22, "hour": "8 PM"}}, {"type": "Feature", "geometry": {"type": "Point", "coordinates": [51.454167, 25.49]}, "properties": {"Country": "Qatar", "Location": "Lusail", "CourseName": "Lusail International Circuit", "month": "Nov", "day": 30, "hour": "7 PM"}}, {"type": "Feature", "geometry": {"type": "Point", "coordinates": [54.603056, 24.467222]}, "properties": {"Country": "United Arab Emirates", "Location": "Yas Island", "CourseName": "Yas Marina Circuit", "month": "Dec", "day": 7, "hour": "5 PM"}}]}